{"paired": {"shipmentId": "Test203|%RUN_TS%", "carrier": "LAIR", "shipper": "TESTCO"}, "version": "v1.0.0", "events": {"PickUpLocationDeparture": {"reasonCode": "X3AF", "sourceType": "operator"}}, "timestamp": {"collected": "2016-02-15T12:08:00.000Z", "received": "2016-02-15T12:08:00.000Z", "processed": "2016-02-15T12:08:00.000Z", "asOf": "2016-02-15T12:00:00.000Z"}, "geolocation": {"latitude": 38.8044, "geolocationMethods": ["programmed"], "sourceType": "operator", "longitude": -77.0922}}
{"paired": {"shipmentId": "Test203|%RUN_TS%", "carrier": "LAIR", "shipper": "TESTCO"}, "version": "v1.0.0", "events": {"GeolocationUpdate": {"toAddress": {"city": "ARLINGTON", "name": "REAGAN NATIONAL AIRPORT", "countryCode": "US", "street": "2401 S SMITH BLVD", "stateCode": "VA", "postalCode": "22202"}, "sourceType": "device", "longitude": -77.0792, "latitude": 38.8024, "reasonCode": "X6NS", "fromAddress": {"city": "ALEXANDRIA", "name": "SAVI TECHNOLOGY", "countryCode": "US", "street": "3601 EISENHOWER AVE", "stateCode": "VA", "postalCode": "22304"}}}, "timestamp": {"collected": "2016-02-15T12:18:00.000Z", "received": "2016-02-15T12:18:00.000Z", "processed": "2016-02-15T12:18:00.000Z", "asOf": "2016-02-15T12:10:00.000Z"}, "geolocation": {"latitude": 38.8024, "geolocationMethods": ["gps"], "sourceType": "device", "longitude": -77.0792}}
{"paired": {"shipmentId": "Test203|%RUN_TS%", "carrier": "LAIR", "shipper": "TESTCO"}, "version": "v1.0.0", "events": {"GeolocationUpdate": {"toAddress": {"city": "ARLINGTON", "name": "REAGAN NATIONAL AIRPORT", "countryCode": "US", "street": "2401 S SMITH BLVD", "stateCode": "VA", "postalCode": "22202"}, "sourceType": "device", "longitude": -77.0521, "latitude": 38.8083, "reasonCode": "X6NS", "fromAddress": {"city": "ALEXANDRIA", "name": "SAVI TECHNOLOGY", "countryCode": "US", "street": "3601 EISENHOWER AVE", "stateCode": "VA", "postalCode": "22304"}}}, "timestamp": {"collected": "2016-02-15T12:28:00.000Z", "received": "2016-02-15T12:28:00.000Z", "processed": "2016-02-15T12:28:00.000Z", "asOf": "2016-02-15T12:20:00.000Z"}, "geolocation": {"latitude": 38.8083, "geolocationMethods": ["gps"], "sourceType": "device", "longitude": -77.0521}}
{"paired": {"shipmentId": "Test203|%RUN_TS%", "carrier": "LAIR", "shipper": "TESTCO"}, "version": "v1.0.0", "events": {"GeolocationUpdate": {"toAddress": {"city": "ARLINGTON", "name": "REAGAN NATIONAL AIRPORT", "countryCode": "US", "street": "2401 S SMITH BLVD", "stateCode": "VA", "postalCode": "22202"}, "sourceType": "device", "longitude": -77.0523, "latitude": 38.8267, "reasonCode": "X6NS", "fromAddress": {"city": "ALEXANDRIA", "name": "SAVI TECHNOLOGY", "countryCode": "US", "street": "3601 EISENHOWER AVE", "stateCode": "VA", "postalCode": "22304"}}}, "timestamp": {"collected": "2016-02-15T12:38:00.000Z", "received": "2016-02-15T12:38:00.000Z", "processed": "2016-02-15T12:38:00.000Z", "asOf": "2016-02-15T12:30:00.000Z"}, "geolocation": {"latitude": 38.8267, "geolocationMethods": ["gps"], "sourceType": "device", "longitude": -77.0523}}
{"paired": {"shipmentId": "Test203|%RUN_TS%", "carrier": "LAIR", "shipper": "TESTCO"}, "version": "v1.0.0", "events": {"GeolocationUpdate": {"toAddress": {"city": "ARLINGTON", "name": "REAGAN NATIONAL AIRPORT", "countryCode": "US", "street": "2401 S SMITH BLVD", "stateCode": "VA", "postalCode": "22202"}, "sourceType": "device", "longitude": -77.0545, "latitude": 38.8406, "reasonCode": "X6NS", "fromAddress": {"city": "ALEXANDRIA", "name": "SAVI TECHNOLOGY", "countryCode": "US", "street": "3601 EISENHOWER AVE", "stateCode": "VA", "postalCode": "22304"}}}, "timestamp": {"collected": "2016-02-15T12:48:00.000Z", "received": "2016-02-15T12:48:00.000Z", "processed": "2016-02-15T12:48:00.000Z", "asOf": "2016-02-15T12:40:00.000Z"}, "geolocation": {"latitude": 38.8406, "geolocationMethods": ["gps"], "sourceType": "device", "longitude": -77.0545}}
{"paired": {"shipmentId": "Test203|%RUN_TS%", "carrier": "LAIR", "shipper": "TESTCO"}, "version": "v1.0.0", "events": {"DeliveryLocationArrival": {"reasonCode": "X1NS", "sourceType": "operator"}}, "timestamp": {"collected": "2016-02-15T12:58:00.000Z", "received": "2016-02-15T12:58:00.000Z", "processed": "2016-02-15T12:58:00.000Z", "asOf": "2016-02-15T12:50:00.000Z"}}
{"paired": {"shipmentId": "Test203|%RUN_TS%", "carrier": "LAIR", "shipper": "TESTCO"}, "version": "v1.0.0", "events": {"GeolocationUpdate": {"toAddress": {"city": "ARLINGTON", "name": "REAGAN NATIONAL AIRPORT", "countryCode": "US", "street": "2401 S SMITH BLVD", "stateCode": "VA", "postalCode": "22202"}, "sourceType": "device", "longitude": -77.0441, "latitude": 38.8494, "reasonCode": "X6NS", "fromAddress": {"city": "ALEXANDRIA", "name": "SAVI TECHNOLOGY", "countryCode": "US", "street": "3601 EISENHOWER AVE", "stateCode": "VA", "postalCode": "22304"}}}, "timestamp": {"collected": "2016-02-15T13:08:00.000Z", "received": "2016-02-15T13:08:00.000Z", "processed": "2016-02-15T13:08:00.000Z", "asOf": "2016-02-15T13:00:00.000Z"}, "geolocation": {"latitude": 38.8494, "geolocationMethods": ["gps"], "sourceType": "device", "longitude": -77.0441}}
{"paired": {"shipmentId": "Test203|%RUN_TS%", "carrier": "LAIR", "shipper": "TESTCO"}, "version": "v1.0.0", "events": {"DepartedDeliveryLocation": {"reasonCode": "CDNS", "sourceType": "device"}}, "timestamp": {"collected": "2016-02-15T13:18:00.000Z", "received": "2016-02-15T13:18:00.000Z", "processed": "2016-02-15T13:18:00.000Z", "asOf": "2016-02-15T13:10:00.000Z"}, "geolocation": {"latitude": 38.8565, "geolocationMethods": ["programmed"], "sourceType": "device", "longitude": -77.0466}}
{"paired": {"shipmentId": "Test203|%RUN_TS%", "carrier": "LAIR", "shipper": "TESTCO"}, "version": "v1.0.0", "events": {"GeolocationUpdate": {"toAddress": {"city": "BALTIMORE", "name": "BALT-WASH AIRPORT", "countryCode": "US", "street": "7062 FRIENDSHIP RD", "stateCode": "MD", "postalCode": "21240"}, "sourceType": "device", "longitude": -77.042, "latitude": 38.8755, "reasonCode": "X6NS", "fromAddress": {"city": "ARLINGTON", "name": "REAGAN NATIONAL AIRPORT", "countryCode": "US", "street": "2401 S SMITH BLVD", "stateCode": "VA", "postalCode": "22202"}}}, "timestamp": {"collected": "2016-02-15T13:28:00.000Z", "received": "2016-02-15T13:28:00.000Z", "processed": "2016-02-15T13:28:00.000Z", "asOf": "2016-02-15T13:20:00.000Z"}, "geolocation": {"latitude": 38.8755, "geolocationMethods": ["gps"], "sourceType": "device", "longitude": -77.042}}
{"paired": {"shipmentId": "Test203|%RUN_TS%", "carrier": "LAIR", "shipper": "TESTCO"}, "version": "v1.0.0", "events": {"GeolocationUpdate": {"toAddress": {"city": "BALTIMORE", "name": "BALT-WASH AIRPORT", "countryCode": "US", "street": "7062 FRIENDSHIP RD", "stateCode": "MD", "postalCode": "21240"}, "sourceType": "device", "longitude": -77.0184, "latitude": 38.8824, "reasonCode": "X6NS", "fromAddress": {"city": "ARLINGTON", "name": "REAGAN NATIONAL AIRPORT", "countryCode": "US", "street": "2401 S SMITH BLVD", "stateCode": "VA", "postalCode": "22202"}}}, "timestamp": {"collected": "2016-02-15T13:38:00.000Z", "received": "2016-02-15T13:38:00.000Z", "processed": "2016-02-15T13:38:00.000Z", "asOf": "2016-02-15T13:30:00.000Z"}, "geolocation": {"latitude": 38.8824, "geolocationMethods": ["gps"], "sourceType": "device", "longitude": -77.0184}}
{"paired": {"shipmentId": "Test203|%RUN_TS%", "carrier": "LAIR", "shipper": "TESTCO"}, "version": "v1.0.0", "events": {"GeolocationUpdate": {"toAddress": {"city": "BALTIMORE", "name": "BALT-WASH AIRPORT", "countryCode": "US", "street": "7062 FRIENDSHIP RD", "stateCode": "MD", "postalCode": "21240"}, "sourceType": "device", "longitude": -77.006, "latitude": 38.8808, "reasonCode": "X6NS", "fromAddress": {"city": "ARLINGTON", "name": "REAGAN NATIONAL AIRPORT", "countryCode": "US", "street": "2401 S SMITH BLVD", "stateCode": "VA", "postalCode": "22202"}}}, "timestamp": {"collected": "2016-02-15T13:48:00.000Z", "received": "2016-02-15T13:48:00.000Z", "processed": "2016-02-15T13:48:00.000Z", "asOf": "2016-02-15T13:40:00.000Z"}, "geolocation": {"latitude": 38.8808, "geolocationMethods": ["gps"], "sourceType": "device", "longitude": -77.006}}
{"paired": {"shipmentId": "Test203|%RUN_TS%", "carrier": "LAIR", "shipper": "TESTCO"}, "version": "v1.0.0", "events": {"GeolocationUpdate": {"toAddress": {"city": "BALTIMORE", "name": "BALT-WASH AIRPORT", "countryCode": "US", "street": "7062 FRIENDSHIP RD", "stateCode": "MD", "postalCode": "21240"}, "sourceType": "device", "longitude": -76.9901, "latitude": 38.87, "reasonCode": "X6NS", "fromAddress": {"city": "ARLINGTON", "name": "REAGAN NATIONAL AIRPORT", "countryCode": "US", "street": "2401 S SMITH BLVD", "stateCode": "VA", "postalCode": "22202"}}}, "timestamp": {"collected": "2016-02-15T13:58:00.000Z", "received": "2016-02-15T13:58:00.000Z", "processed": "2016-02-15T13:58:00.000Z", "asOf": "2016-02-15T13:50:00.000Z"}, "geolocation": {"latitude": 38.87, "geolocationMethods": ["gps"], "sourceType": "device", "longitude": -76.9901}}
{"paired": {"shipmentId": "Test203|%RUN_TS%", "carrier": "LAIR", "shipper": "TESTCO"}, "version": "v1.0.0", "events": {"GeolocationUpdate": {"toAddress": {"city": "BALTIMORE", "name": "BALT-WASH AIRPORT", "countryCode": "US", "street": "7062 FRIENDSHIP RD", "stateCode": "MD", "postalCode": "21240"}, "sourceType": "device", "longitude": -76.9356, "latitude": 38.913, "reasonCode": "X6NS", "fromAddress": {"city": "ARLINGTON", "name": "REAGAN NATIONAL AIRPORT", "countryCode": "US", "street": "2401 S SMITH BLVD", "stateCode": "VA", "postalCode": "22202"}}}, "timestamp": {"collected": "2016-02-15T14:08:00.000Z", "received": "2016-02-15T14:08:00.000Z", "processed": "2016-02-15T14:08:00.000Z", "asOf": "2016-02-15T14:00:00.000Z"}, "geolocation": {"latitude": 38.913, "geolocationMethods": ["gps"], "sourceType": "device", "longitude": -76.9356}}
{"paired": {"shipmentId": "Test203|%RUN_TS%", "carrier": "LAIR", "shipper": "TESTCO"}, "version": "v1.0.0", "events": {"GeolocationUpdate": {"toAddress": {"city": "BALTIMORE", "name": "BALT-WASH AIRPORT", "countryCode": "US", "street": "7062 FRIENDSHIP RD", "stateCode": "MD", "postalCode": "21240"}, "sourceType": "device", "longitude": -76.8232, "latitude": 39.0811, "reasonCode": "X6NS", "fromAddress": {"city": "ARLINGTON", "name": "REAGAN NATIONAL AIRPORT", "countryCode": "US", "street": "2401 S SMITH BLVD", "stateCode": "VA", "postalCode": "22202"}}}, "timestamp": {"collected": "2016-02-15T14:18:00.000Z", "received": "2016-02-15T14:18:00.000Z", "processed": "2016-02-15T14:18:00.000Z", "asOf": "2016-02-15T14:10:00.000Z"}, "geolocation": {"latitude": 39.0811, "geolocationMethods": ["gps"], "sourceType": "device", "longitude": -76.8232}}
{"paired": {"shipmentId": "Test203|%RUN_TS%", "carrier": "LAIR", "shipper": "TESTCO"}, "version": "v1.0.0", "events": {"GeolocationUpdate": {"toAddress": {"city": "BALTIMORE", "name": "BALT-WASH AIRPORT", "countryCode": "US", "street": "7062 FRIENDSHIP RD", "stateCode": "MD", "postalCode": "21240"}, "sourceType": "device", "longitude": -76.7767, "latitude": 39.1037, "reasonCode": "X6NS", "fromAddress": {"city": "ARLINGTON", "name": "REAGAN NATIONAL AIRPORT", "countryCode": "US", "street": "2401 S SMITH BLVD", "stateCode": "VA", "postalCode": "22202"}}}, "timestamp": {"collected": "2016-02-15T14:28:00.000Z", "received": "2016-02-15T14:28:00.000Z", "processed": "2016-02-15T14:28:00.000Z", "asOf": "2016-02-15T14:20:00.000Z"}, "geolocation": {"latitude": 39.1037, "geolocationMethods": ["gps"], "sourceType": "device", "longitude": -76.7767}}
{"paired": {"shipmentId": "Test203|%RUN_TS%", "carrier": "LAIR", "shipper": "TESTCO"}, "version": "v1.0.0", "events": {"DeliveryLocationArrival": {"reasonCode": "X1NS", "sourceType": "operator"}}, "timestamp": {"collected": "2016-02-15T14:38:00.000Z", "received": "2016-02-15T14:38:00.000Z", "processed": "2016-02-15T14:38:00.000Z", "asOf": "2016-02-15T14:30:00.000Z"}}
{"paired": {"shipmentId": "Test203|%RUN_TS%", "carrier": "LAIR", "shipper": "TESTCO"}, "version": "v1.0.0", "events": {"GeolocationUpdate": {"toAddress": {"city": "BALTIMORE", "name": "BALT-WASH AIRPORT", "countryCode": "US", "street": "7062 FRIENDSHIP RD", "stateCode": "MD", "postalCode": "21240"}, "sourceType": "device", "longitude": -76.6814, "latitude": 39.1865, "reasonCode": "X6NS", "fromAddress": {"city": "ARLINGTON", "name": "REAGAN NATIONAL AIRPORT", "countryCode": "US", "street": "2401 S SMITH BLVD", "stateCode": "VA", "postalCode": "22202"}}}, "timestamp": {"collected": "2016-02-15T14:48:00.000Z", "received": "2016-02-15T14:48:00.000Z", "processed": "2016-02-15T14:48:00.000Z", "asOf": "2016-02-15T14:40:00.000Z"}, "geolocation": {"latitude": 39.1865, "geolocationMethods": ["gps"], "sourceType": "device", "longitude": -76.6814}}
{"paired": {"shipmentId": "Test203|%RUN_TS%", "carrier": "LAIR", "shipper": "TESTCO"}, "version": "v1.0.0", "events": {"GeolocationUpdate": {"toAddress": {"city": "BALTIMORE", "name": "BALT-WASH AIRPORT", "countryCode": "US", "street": "7062 FRIENDSHIP RD", "stateCode": "MD", "postalCode": "21240"}, "sourceType": "device", "longitude": -76.6743, "latitude": 39.1831, "reasonCode": "X6NS", "fromAddress": {"city": "ARLINGTON", "name": "REAGAN NATIONAL AIRPORT", "countryCode": "US", "street": "2401 S SMITH BLVD", "stateCode": "VA", "postalCode": "22202"}}}, "timestamp": {"collected": "2016-02-15T14:58:00.000Z", "received": "2016-02-15T14:58:00.000Z", "processed": "2016-02-15T14:58:00.000Z", "asOf": "2016-02-15T14:50:00.000Z"}, "geolocation": {"latitude": 39.1831, "geolocationMethods": ["gps"], "sourceType": "device", "longitude": -76.6743}}
{"paired": {"shipmentId": "Test203|%RUN_TS%", "carrier": "LAIR", "shipper": "TESTCO"}, "version": "v1.0.0", "events": {"DepartedDeliveryLocation": {"reasonCode": "CDNS", "sourceType": "device"}}, "timestamp": {"collected": "2016-02-15T15:08:00.000Z", "received": "2016-02-15T15:08:00.000Z", "processed": "2016-02-15T15:08:00.000Z", "asOf": "2016-02-15T15:00:00.000Z"}, "geolocation": {"latitude": 39.1968, "geolocationMethods": ["programmed"], "sourceType": "device", "longitude": -76.692}}
