{"paired": {"shipmentId": "Test212|%RUN_TS%", "carrier": "LAIR", "shipper": "TESTCO"}, "version": "v1.0.0", "events": {"PickUpLocationDeparture": {"reasonCode": "X3AF", "sourceType": "operator"}}, "timestamp": {"collected": "2016-02-15T12:08:00.000Z", "received": "2016-02-15T12:08:00.000Z", "processed": "2016-02-15T12:08:00.000Z", "asOf": "2016-02-15T12:00:00.000Z"}, "geolocation": {"latitude": 38.8044, "geolocationMethods": ["programmed"], "sourceType": "operator", "longitude": -77.0922}}
{"paired": {"shipmentId": "Test212|%RUN_TS%", "carrier": "LAIR", "shipper": "TESTCO"}, "version": "v1.0.0", "events": {"GeolocationUpdate": {"toAddress": {"city": "ARLINGTON", "name": "REAGAN NATIONAL AIRPORT", "countryCode": "US", "street": "2401 S SMITH BLVD", "stateCode": "VA", "postalCode": "22202"}, "sourceType": "device", "longitude": -77.0532, "latitude": 38.8028, "reasonCode": "X6NS", "fromAddress": {"city": "ALEXANDRIA", "name": "SAVI TECHNOLOGY", "countryCode": "US", "street": "3601 EISENHOWER AVE", "stateCode": "VA", "postalCode": "22304"}}}, "timestamp": {"collected": "2016-02-15T12:23:00.000Z", "received": "2016-02-15T12:23:00.000Z", "processed": "2016-02-15T12:23:00.000Z", "asOf": "2016-02-15T12:15:00.000Z"}, "geolocation": {"latitude": 38.8028, "geolocationMethods": ["gps"], "sourceType": "device", "longitude": -77.0532}}
{"paired": {"shipmentId": "Test212|%RUN_TS%", "carrier": "LAIR", "shipper": "TESTCO"}, "version": "v1.0.0", "events": {"GeolocationUpdate": {"toAddress": {"city": "ARLINGTON", "name": "REAGAN NATIONAL AIRPORT", "countryCode": "US", "street": "2401 S SMITH BLVD", "stateCode": "VA", "postalCode": "22202"}, "sourceType": "device", "longitude": -77.0465, "latitude": 38.8322, "reasonCode": "X6NS", "fromAddress": {"city": "ALEXANDRIA", "name": "SAVI TECHNOLOGY", "countryCode": "US", "street": "3601 EISENHOWER AVE", "stateCode": "VA", "postalCode": "22304"}}}, "timestamp": {"collected": "2016-02-15T12:38:00.000Z", "received": "2016-02-15T12:38:00.000Z", "processed": "2016-02-15T12:38:00.000Z", "asOf": "2016-02-15T12:30:00.000Z"}, "geolocation": {"latitude": 38.8322, "geolocationMethods": ["gps"], "sourceType": "device", "longitude": -77.0465}}
{"paired": {"shipmentId": "Test212|%RUN_TS%", "carrier": "LAIR", "shipper": "TESTCO"}, "version": "v1.0.0", "events": {"DeliveryLocationArrival": {"reasonCode": "X1NS", "sourceType": "operator"}}, "timestamp": {"collected": "2016-02-15T12:53:00.000Z", "received": "2016-02-15T12:53:00.000Z", "processed": "2016-02-15T12:53:00.000Z", "asOf": "2016-02-15T12:45:00.000Z"}, "geolocation": {"latitude": 38.8514, "geolocationMethods": ["programmed"], "sourceType": "operator", "longitude": -77.0465}}
{"paired": {"shipmentId": "Test212|%RUN_TS%", "carrier": "LAIR", "shipper": "TESTCO"}, "version": "v1.0.0", "events": {"DepartedDeliveryLocation": {"reasonCode": "CDNS", "sourceType": "operator"}}, "timestamp": {"collected": "2016-02-15T13:23:00.000Z", "received": "2016-02-15T13:23:00.000Z", "processed": "2016-02-15T13:23:00.000Z", "asOf": "2016-02-15T13:15:00.000Z"}, "geolocation": {"latitude": 38.8514, "geolocationMethods": ["programmed"], "sourceType": "operator", "longitude": -77.0465}}
{"paired": {"shipmentId": "Test212|%RUN_TS%", "carrier": "LAIR", "shipper": "TESTCO"}, "version": "v1.0.0", "events": {"GeolocationUpdate": {"toAddress": {"city": "ARLINGTON", "name": "REAGAN NATIONAL AIRPORT", "countryCode": "US", "street": "2401 S SMITH BLVD", "stateCode": "VA", "postalCode": "22202"}, "sourceType": "device", "longitude": -77.0461, "latitude": 38.8532, "reasonCode": "X6NS", "fromAddress": {"city": "ALEXANDRIA", "name": "SAVI TECHNOLOGY", "countryCode": "US", "street": "3601 EISENHOWER AVE", "stateCode": "VA", "postalCode": "22304"}}}, "timestamp": {"collected": "2016-02-15T13:30:00.000Z", "received": "2016-02-15T13:30:00.000Z", "processed": "2016-02-15T13:30:00.000Z", "asOf": "2016-02-15T13:00:00.000Z"}, "geolocation": {"latitude": 38.8532, "geolocationMethods": ["gps"], "sourceType": "device", "longitude": -77.0461}}
{"paired": {"shipmentId": "Test212|%RUN_TS%", "carrier": "LAIR", "shipper": "TESTCO"}, "version": "v1.0.0", "events": {"GeolocationUpdate": {"toAddress": {"city": "BALTIMORE", "name": "BALT-WASH AIRPORT", "countryCode": "US", "street": "7062 FRIENDSHIP RD", "stateCode": "MD", "postalCode": "21240"}, "sourceType": "device", "longitude": -76.966, "latitude": 38.8788, "reasonCode": "X6NS", "fromAddress": {"city": "ARLINGTON", "name": "REAGAN NATIONAL AIRPORT", "countryCode": "US", "street": "2401 S SMITH BLVD", "stateCode": "VA", "postalCode": "22202"}}}, "timestamp": {"collected": "2016-02-15T13:38:00.000Z", "received": "2016-02-15T13:38:00.000Z", "processed": "2016-02-15T13:38:00.000Z", "asOf": "2016-02-15T13:30:00.000Z"}, "geolocation": {"latitude": 38.8788, "geolocationMethods": ["gps"], "sourceType": "device", "longitude": -76.966}}
{"paired": {"shipmentId": "Test212|%RUN_TS%", "carrier": "LAIR", "shipper": "TESTCO"}, "version": "v1.0.0", "events": {"GeolocationUpdate": {"toAddress": {"city": "BALTIMORE", "name": "BALT-WASH AIRPORT", "countryCode": "US", "street": "7062 FRIENDSHIP RD", "stateCode": "MD", "postalCode": "21240"}, "sourceType": "device", "longitude": -76.8536, "latitude": 39.0364, "reasonCode": "X6NS", "fromAddress": {"city": "ARLINGTON", "name": "REAGAN NATIONAL AIRPORT", "countryCode": "US", "street": "2401 S SMITH BLVD", "stateCode": "VA", "postalCode": "22202"}}}, "timestamp": {"collected": "2016-02-15T13:53:00.000Z", "received": "2016-02-15T13:53:00.000Z", "processed": "2016-02-15T13:53:00.000Z", "asOf": "2016-02-15T13:45:00.000Z"}, "geolocation": {"latitude": 39.0364, "geolocationMethods": ["gps"], "sourceType": "device", "longitude": -76.8536}}
{"paired": {"shipmentId": "Test212|%RUN_TS%", "carrier": "LAIR", "shipper": "TESTCO"}, "version": "v1.0.0", "events": {"GeolocationUpdate": {"toAddress": {"city": "BALTIMORE", "name": "BALT-WASH AIRPORT", "countryCode": "US", "street": "7062 FRIENDSHIP RD", "stateCode": "MD", "postalCode": "21240"}, "sourceType": "device", "longitude": -76.6975, "latitude": 39.1988, "reasonCode": "X6NS", "fromAddress": {"city": "ARLINGTON", "name": "REAGAN NATIONAL AIRPORT", "countryCode": "US", "street": "2401 S SMITH BLVD", "stateCode": "VA", "postalCode": "22202"}}}, "timestamp": {"collected": "2016-02-15T14:08:00.000Z", "received": "2016-02-15T14:08:00.000Z", "processed": "2016-02-15T14:08:00.000Z", "asOf": "2016-02-15T14:00:00.000Z"}, "geolocation": {"latitude": 39.1988, "geolocationMethods": ["gps"], "sourceType": "device", "longitude": -76.6975}}
{"paired": {"shipmentId": "Test212|%RUN_TS%", "carrier": "LAIR", "shipper": "TESTCO"}, "version": "v1.0.0", "events": {"DeliveryLocationArrival": {"reasonCode": "X1NS", "sourceType": "operator"}}, "timestamp": {"collected": "2016-02-15T14:23:00.000Z", "received": "2016-02-15T14:23:00.000Z", "processed": "2016-02-15T14:23:00.000Z", "asOf": "2016-02-15T14:15:00.000Z"}, "geolocation": {"latitude": 39.177, "geolocationMethods": ["programmed"], "sourceType": "operator", "longitude": -76.6705}}
{"paired": {"shipmentId": "Test212|%RUN_TS%", "carrier": "LAIR", "shipper": "TESTCO"}, "version": "v1.0.0", "events": {"GeolocationUpdate": {"toAddress": {"city": "BALTIMORE", "name": "BALT-WASH AIRPORT", "countryCode": "US", "street": "7062 FRIENDSHIP RD", "stateCode": "MD", "postalCode": "21240"}, "sourceType": "device", "longitude": -76.6721, "latitude": 39.1798, "reasonCode": "X6NS", "fromAddress": {"city": "ARLINGTON", "name": "REAGAN NATIONAL AIRPORT", "countryCode": "US", "street": "2401 S SMITH BLVD", "stateCode": "VA", "postalCode": "22202"}}}, "timestamp": {"collected": "2016-02-15T14:38:00.000Z", "received": "2016-02-15T14:38:00.000Z", "processed": "2016-02-15T14:38:00.000Z", "asOf": "2016-02-15T14:30:00.000Z"}, "geolocation": {"latitude": 39.1798, "geolocationMethods": ["gps"], "sourceType": "device", "longitude": -76.6721}}
{"paired": {"shipmentId": "Test212|%RUN_TS%", "carrier": "LAIR", "shipper": "TESTCO"}, "version": "v1.0.0", "events": {"DepartedDeliveryLocation": {"reasonCode": "CDNS", "sourceType": "operator"}}, "timestamp": {"collected": "2016-02-15T14:53:00.000Z", "received": "2016-02-15T14:53:00.000Z", "processed": "2016-02-15T14:53:00.000Z", "asOf": "2016-02-15T14:45:00.000Z"}, "geolocation": {"latitude": 39.177, "geolocationMethods": ["programmed"], "sourceType": "operator", "longitude": -76.6705}}
