{"paired": {"carrier": "LAIR", "shipper": "TESTCO", "shipmentId": "Test105|%RUN_TS%"}, "version": "v1.0.0", "geolocation": {"latitude": 38.8044, "geolocationMethods": ["gps"], "sourceType": "device", "longitude": -77.0922}, "events": {"GeolocationUpdate": {"toAddress": {"city": "ARLINGTON", "name": "REAGAN NATIONAL AIRPORT", "countryCode": "US", "street": "2401 S SMITH BLVD", "stateCode": "VA", "postalCode": "22202"}, "sourceType": "device", "longitude": -77.0922, "latitude": 38.8044, "reasonCode": "X6NS", "fromAddress": {"city": "ALEXANDRIA", "name": "SAVI TECHNOLOGY", "countryCode": "US", "street": "3601 EISENHOWER AVE", "stateCode": "VA", "postalCode": "22304"}}}, "timestamp": {"collected": "2016-02-09T12:01:00.000Z", "received": "2016-02-09T12:01:00.000Z", "processed": "2016-02-09T12:01:00.000Z", "asOf": "2016-02-09T12:00:00.000Z"}}
{"paired": {"carrier": "LAIR", "shipper": "TESTCO", "shipmentId": "Test105|%RUN_TS%"}, "version": "v1.0.0", "geolocation": {"latitude": 38.8033, "geolocationMethods": ["gps"], "sourceType": "device", "longitude": -77.0912}, "events": {"GeolocationUpdate": {"toAddress": {"city": "ARLINGTON", "name": "REAGAN NATIONAL AIRPORT", "countryCode": "US", "street": "2401 S SMITH BLVD", "stateCode": "VA", "postalCode": "22202"}, "sourceType": "device", "longitude": -77.0912, "latitude": 38.8033, "reasonCode": "X6NS", "fromAddress": {"city": "ALEXANDRIA", "name": "SAVI TECHNOLOGY", "countryCode": "US", "street": "3601 EISENHOWER AVE", "stateCode": "VA", "postalCode": "22304"}}}, "timestamp": {"collected": "2016-02-09T12:06:00.000Z", "received": "2016-02-09T12:06:00.000Z", "processed": "2016-02-09T12:06:00.000Z", "asOf": "2016-02-09T12:05:00.000Z"}}
{"paired": {"carrier": "LAIR", "shipper": "TESTCO", "shipmentId": "Test105|%RUN_TS%"}, "version": "v1.0.0", "geolocation": {"latitude": 38.802, "geolocationMethods": ["gps"], "sourceType": "device", "longitude": -77.076}, "events": {"GeolocationUpdate": {"toAddress": {"city": "ARLINGTON", "name": "REAGAN NATIONAL AIRPORT", "countryCode": "US", "street": "2401 S SMITH BLVD", "stateCode": "VA", "postalCode": "22202"}, "sourceType": "device", "longitude": -77.076, "latitude": 38.802, "reasonCode": "X6NS", "fromAddress": {"city": "ALEXANDRIA", "name": "SAVI TECHNOLOGY", "countryCode": "US", "street": "3601 EISENHOWER AVE", "stateCode": "VA", "postalCode": "22304"}}}, "timestamp": {"collected": "2016-02-09T12:11:00.000Z", "received": "2016-02-09T12:11:00.000Z", "processed": "2016-02-09T12:11:00.000Z", "asOf": "2016-02-09T12:10:00.000Z"}}
{"paired": {"carrier": "LAIR", "shipper": "TESTCO", "shipmentId": "Test105|%RUN_TS%"}, "version": "v1.0.0", "geolocation": {"latitude": 38.8018, "geolocationMethods": ["gps"], "sourceType": "device", "longitude": -77.0714}, "events": {"GeolocationUpdate": {"toAddress": {"city": "ARLINGTON", "name": "REAGAN NATIONAL AIRPORT", "countryCode": "US", "street": "2401 S SMITH BLVD", "stateCode": "VA", "postalCode": "22202"}, "sourceType": "device", "longitude": -77.0714, "latitude": 38.8018, "reasonCode": "X6NS", "fromAddress": {"city": "ALEXANDRIA", "name": "SAVI TECHNOLOGY", "countryCode": "US", "street": "3601 EISENHOWER AVE", "stateCode": "VA", "postalCode": "22304"}}}, "timestamp": {"collected": "2016-02-09T12:16:00.000Z", "received": "2016-02-09T12:16:00.000Z", "processed": "2016-02-09T12:16:00.000Z", "asOf": "2016-02-09T12:15:00.000Z"}}
{"paired": {"carrier": "LAIR", "shipper": "TESTCO", "shipmentId": "Test105|%RUN_TS%"}, "version": "v1.0.0", "geolocation": {"latitude": 38.8018, "geolocationMethods": ["gps"], "sourceType": "device", "longitude": -77.0714}, "events": {"GeolocationUpdate": {"toAddress": {"city": "ARLINGTON", "name": "REAGAN NATIONAL AIRPORT", "countryCode": "US", "street": "2401 S SMITH BLVD", "stateCode": "VA", "postalCode": "22202"}, "sourceType": "device", "longitude": -77.0714, "latitude": 38.8018, "reasonCode": "X6NS", "fromAddress": {"city": "ALEXANDRIA", "name": "SAVI TECHNOLOGY", "countryCode": "US", "street": "3601 EISENHOWER AVE", "stateCode": "VA", "postalCode": "22304"}}}, "timestamp": {"collected": "2016-02-09T12:21:00.000Z", "received": "2016-02-09T12:21:00.000Z", "processed": "2016-02-09T12:21:00.000Z", "asOf": "2016-02-09T12:20:00.000Z"}}
{"paired": {"carrier": "LAIR", "shipper": "TESTCO", "shipmentId": "Test105|%RUN_TS%"}, "version": "v1.0.0", "geolocation": {"latitude": 38.8018, "geolocationMethods": ["gps"], "sourceType": "device", "longitude": -77.0714}, "events": {"GeolocationUpdate": {"toAddress": {"city": "ARLINGTON", "name": "REAGAN NATIONAL AIRPORT", "countryCode": "US", "street": "2401 S SMITH BLVD", "stateCode": "VA", "postalCode": "22202"}, "sourceType": "device", "longitude": -77.0714, "latitude": 38.8018, "reasonCode": "X6NS", "fromAddress": {"city": "ALEXANDRIA", "name": "SAVI TECHNOLOGY", "countryCode": "US", "street": "3601 EISENHOWER AVE", "stateCode": "VA", "postalCode": "22304"}}}, "timestamp": {"collected": "2016-02-09T12:26:00.000Z", "received": "2016-02-09T12:26:00.000Z", "processed": "2016-02-09T12:26:00.000Z", "asOf": "2016-02-09T12:25:00.000Z"}}
{"paired": {"carrier": "LAIR", "shipper": "TESTCO", "shipmentId": "Test105|%RUN_TS%"}, "version": "v1.0.0", "geolocation": {"latitude": 38.8018, "geolocationMethods": ["gps"], "sourceType": "device", "longitude": -77.0714}, "events": {"GeolocationUpdate": {"toAddress": {"city": "ARLINGTON", "name": "REAGAN NATIONAL AIRPORT", "countryCode": "US", "street": "2401 S SMITH BLVD", "stateCode": "VA", "postalCode": "22202"}, "sourceType": "device", "longitude": -77.0714, "latitude": 38.8018, "reasonCode": "X6NS", "fromAddress": {"city": "ALEXANDRIA", "name": "SAVI TECHNOLOGY", "countryCode": "US", "street": "3601 EISENHOWER AVE", "stateCode": "VA", "postalCode": "22304"}}}, "timestamp": {"collected": "2016-02-09T12:31:00.000Z", "received": "2016-02-09T12:31:00.000Z", "processed": "2016-02-09T12:31:00.000Z", "asOf": "2016-02-09T12:30:00.000Z"}}
{"paired": {"carrier": "LAIR", "shipper": "TESTCO", "shipmentId": "Test105|%RUN_TS%"}, "version": "v1.0.0", "geolocation": {"latitude": 38.8018, "geolocationMethods": ["gps"], "sourceType": "device", "longitude": -77.0714}, "events": {"GeolocationUpdate": {"toAddress": {"city": "ARLINGTON", "name": "REAGAN NATIONAL AIRPORT", "countryCode": "US", "street": "2401 S SMITH BLVD", "stateCode": "VA", "postalCode": "22202"}, "sourceType": "device", "longitude": -77.0714, "latitude": 38.8018, "reasonCode": "X6NS", "fromAddress": {"city": "ALEXANDRIA", "name": "SAVI TECHNOLOGY", "countryCode": "US", "street": "3601 EISENHOWER AVE", "stateCode": "VA", "postalCode": "22304"}}}, "timestamp": {"collected": "2016-02-09T12:36:00.000Z", "received": "2016-02-09T12:36:00.000Z", "processed": "2016-02-09T12:36:00.000Z", "asOf": "2016-02-09T12:35:00.000Z"}}
{"paired": {"carrier": "LAIR", "shipper": "TESTCO", "shipmentId": "Test105|%RUN_TS%"}, "version": "v1.0.0", "geolocation": {"latitude": 38.8005, "geolocationMethods": ["gps"], "sourceType": "device", "longitude": -77.0604}, "events": {"GeolocationUpdate": {"toAddress": {"city": "ARLINGTON", "name": "REAGAN NATIONAL AIRPORT", "countryCode": "US", "street": "2401 S SMITH BLVD", "stateCode": "VA", "postalCode": "22202"}, "sourceType": "device", "longitude": -77.0604, "latitude": 38.8005, "reasonCode": "X6NS", "fromAddress": {"city": "ALEXANDRIA", "name": "SAVI TECHNOLOGY", "countryCode": "US", "street": "3601 EISENHOWER AVE", "stateCode": "VA", "postalCode": "22304"}}}, "timestamp": {"collected": "2016-02-09T12:41:00.000Z", "received": "2016-02-09T12:41:00.000Z", "processed": "2016-02-09T12:41:00.000Z", "asOf": "2016-02-09T12:40:00.000Z"}}
{"paired": {"carrier": "LAIR", "shipper": "TESTCO", "shipmentId": "Test105|%RUN_TS%"}, "version": "v1.0.0", "geolocation": {"latitude": 38.8025, "geolocationMethods": ["gps"], "sourceType": "device", "longitude": -77.0453}, "events": {"GeolocationUpdate": {"toAddress": {"city": "ARLINGTON", "name": "REAGAN NATIONAL AIRPORT", "countryCode": "US", "street": "2401 S SMITH BLVD", "stateCode": "VA", "postalCode": "22202"}, "sourceType": "device", "longitude": -77.0453, "latitude": 38.8025, "reasonCode": "X6NS", "fromAddress": {"city": "ALEXANDRIA", "name": "SAVI TECHNOLOGY", "countryCode": "US", "street": "3601 EISENHOWER AVE", "stateCode": "VA", "postalCode": "22304"}}}, "timestamp": {"collected": "2016-02-09T12:46:00.000Z", "received": "2016-02-09T12:46:00.000Z", "processed": "2016-02-09T12:46:00.000Z", "asOf": "2016-02-09T12:45:00.000Z"}}
{"paired": {"carrier": "LAIR", "shipper": "TESTCO", "shipmentId": "Test105|%RUN_TS%"}, "version": "v1.0.0", "geolocation": {"latitude": 38.8152, "geolocationMethods": ["gps"], "sourceType": "device", "longitude": -77.0449}, "events": {"GeolocationUpdate": {"toAddress": {"city": "ARLINGTON", "name": "REAGAN NATIONAL AIRPORT", "countryCode": "US", "street": "2401 S SMITH BLVD", "stateCode": "VA", "postalCode": "22202"}, "sourceType": "device", "longitude": -77.0449, "latitude": 38.8152, "reasonCode": "X6NS", "fromAddress": {"city": "ALEXANDRIA", "name": "SAVI TECHNOLOGY", "countryCode": "US", "street": "3601 EISENHOWER AVE", "stateCode": "VA", "postalCode": "22304"}}}, "timestamp": {"collected": "2016-02-09T12:51:00.000Z", "received": "2016-02-09T12:51:00.000Z", "processed": "2016-02-09T12:51:00.000Z", "asOf": "2016-02-09T12:50:00.000Z"}}
{"paired": {"carrier": "LAIR", "shipper": "TESTCO", "shipmentId": "Test105|%RUN_TS%"}, "version": "v1.0.0", "geolocation": {"latitude": 38.8305, "geolocationMethods": ["gps"], "sourceType": "device", "longitude": -77.0436}, "events": {"GeolocationUpdate": {"toAddress": {"city": "ARLINGTON", "name": "REAGAN NATIONAL AIRPORT", "countryCode": "US", "street": "2401 S SMITH BLVD", "stateCode": "VA", "postalCode": "22202"}, "sourceType": "device", "longitude": -77.0436, "latitude": 38.8305, "reasonCode": "X6NS", "fromAddress": {"city": "ALEXANDRIA", "name": "SAVI TECHNOLOGY", "countryCode": "US", "street": "3601 EISENHOWER AVE", "stateCode": "VA", "postalCode": "22304"}}}, "timestamp": {"collected": "2016-02-09T12:56:00.000Z", "received": "2016-02-09T12:56:00.000Z", "processed": "2016-02-09T12:56:00.000Z", "asOf": "2016-02-09T12:55:00.000Z"}}
{"paired": {"carrier": "LAIR", "shipper": "TESTCO", "shipmentId": "Test105|%RUN_TS%"}, "version": "v1.0.0", "geolocation": {"latitude": 38.8429, "geolocationMethods": ["gps"], "sourceType": "device", "longitude": -77.0489}, "events": {"GeolocationUpdate": {"toAddress": {"city": "ARLINGTON", "name": "REAGAN NATIONAL AIRPORT", "countryCode": "US", "street": "2401 S SMITH BLVD", "stateCode": "VA", "postalCode": "22202"}, "sourceType": "device", "longitude": -77.0489, "latitude": 38.8429, "reasonCode": "X6NS", "fromAddress": {"city": "ALEXANDRIA", "name": "SAVI TECHNOLOGY", "countryCode": "US", "street": "3601 EISENHOWER AVE", "stateCode": "VA", "postalCode": "22304"}}}, "timestamp": {"collected": "2016-02-09T13:01:00.000Z", "received": "2016-02-09T13:01:00.000Z", "processed": "2016-02-09T13:01:00.000Z", "asOf": "2016-02-09T13:00:00.000Z"}}
{"paired": {"carrier": "LAIR", "shipper": "TESTCO", "shipmentId": "Test105|%RUN_TS%"}, "version": "v1.0.0", "geolocation": {"latitude": 38.8498, "geolocationMethods": ["gps"], "sourceType": "device", "longitude": -77.0497}, "events": {"GeolocationUpdate": {"toAddress": {"city": "ARLINGTON", "name": "REAGAN NATIONAL AIRPORT", "countryCode": "US", "street": "2401 S SMITH BLVD", "stateCode": "VA", "postalCode": "22202"}, "sourceType": "device", "longitude": -77.0497, "latitude": 38.8498, "reasonCode": "X6NS", "fromAddress": {"city": "ALEXANDRIA", "name": "SAVI TECHNOLOGY", "countryCode": "US", "street": "3601 EISENHOWER AVE", "stateCode": "VA", "postalCode": "22304"}}}, "timestamp": {"collected": "2016-02-09T13:06:00.000Z", "received": "2016-02-09T13:06:00.000Z", "processed": "2016-02-09T13:06:00.000Z", "asOf": "2016-02-09T13:05:00.000Z"}}
{"paired": {"carrier": "LAIR", "shipper": "TESTCO", "shipmentId": "Test105|%RUN_TS%"}, "version": "v1.0.0", "geolocation": {"latitude": 38.8513, "geolocationMethods": ["gps"], "sourceType": "device", "longitude": -77.0427}, "events": {"GeolocationUpdate": {"toAddress": {"city": "ARLINGTON", "name": "REAGAN NATIONAL AIRPORT", "countryCode": "US", "street": "2401 S SMITH BLVD", "stateCode": "VA", "postalCode": "22202"}, "sourceType": "device", "longitude": -77.0427, "latitude": 38.8513, "reasonCode": "X6NS", "fromAddress": {"city": "ALEXANDRIA", "name": "SAVI TECHNOLOGY", "countryCode": "US", "street": "3601 EISENHOWER AVE", "stateCode": "VA", "postalCode": "22304"}}}, "timestamp": {"collected": "2016-02-09T13:11:00.000Z", "received": "2016-02-09T13:11:00.000Z", "processed": "2016-02-09T13:11:00.000Z", "asOf": "2016-02-09T13:10:00.000Z"}}
