{"paired": {"carrier": "LAIR", "shipper": "TESTCO", "shipmentId": "Test104|%RUN_TS%"}, "version": "v1.0.0", "events": {"ShipmentDeliveryEstimate": {"reasonCode": "X6NS", "operatorEstimate": "2016-02-09T12:30:00.000Z", "sourceType": "operator"}}, "timestamp": {"collected": "2016-02-08T15:11:00.000Z", "received": "2016-02-08T15:11:00.000Z", "processed": "2016-02-08T15:11:00.000Z", "asOf": "2016-02-08T14:00:00.000Z"}}
{"paired": {"carrier": "LAIR", "shipper": "TESTCO", "shipmentId": "Test104|%RUN_TS%"}, "version": "v1.0.0", "geolocation": {"latitude": 38.8044, "geolocationMethods": ["gps"], "sourceType": "device", "longitude": -77.0922}, "events": {"GeolocationUpdate": {"toAddress": {"city": "ARLINGTON", "name": "REAGAN NATIONAL AIRPORT", "countryCode": "US", "street": "2401 S SMITH BLVD", "stateCode": "VA", "postalCode": "22202"}, "sourceType": "device", "longitude": -77.0922, "latitude": 38.8044, "reasonCode": "X6NS", "fromAddress": {"city": "ALEXANDRIA", "name": "SAVI TECHNOLOGY", "countryCode": "US", "street": "3601 EISENHOWER AVE", "stateCode": "VA", "postalCode": "22304"}}}, "timestamp": {"collected": "2016-02-09T12:02:00.000Z", "received": "2016-02-09T12:02:00.000Z", "processed": "2016-02-09T12:02:00.000Z", "asOf": "2016-02-09T12:00:00.000Z"}}
{"paired": {"carrier": "LAIR", "shipper": "TESTCO", "shipmentId": "Test104|%RUN_TS%"}, "version": "v1.0.0", "geolocation": {"latitude": 38.8033, "geolocationMethods": ["gps"], "sourceType": "device", "longitude": -77.0912}, "events": {"GeolocationUpdate": {"toAddress": {"city": "ARLINGTON", "name": "REAGAN NATIONAL AIRPORT", "countryCode": "US", "street": "2401 S SMITH BLVD", "stateCode": "VA", "postalCode": "22202"}, "sourceType": "device", "longitude": -77.0912, "latitude": 38.8033, "reasonCode": "X6NS", "fromAddress": {"city": "ALEXANDRIA", "name": "SAVI TECHNOLOGY", "countryCode": "US", "street": "3601 EISENHOWER AVE", "stateCode": "VA", "postalCode": "22304"}}}, "timestamp": {"collected": "2016-02-09T12:05:00.000Z", "received": "2016-02-09T12:05:00.000Z", "processed": "2016-02-09T12:05:00.000Z", "asOf": "2016-02-09T12:03:00.000Z"}}
{"paired": {"carrier": "LAIR", "shipper": "TESTCO", "shipmentId": "Test104|%RUN_TS%"}, "version": "v1.0.0", "geolocation": {"latitude": 38.8016, "geolocationMethods": ["gps"], "sourceType": "device", "longitude": -77.0742}, "events": {"GeolocationUpdate": {"toAddress": {"city": "ARLINGTON", "name": "REAGAN NATIONAL AIRPORT", "countryCode": "US", "street": "2401 S SMITH BLVD", "stateCode": "VA", "postalCode": "22202"}, "sourceType": "device", "longitude": -77.0742, "latitude": 38.8016, "reasonCode": "X6NS", "fromAddress": {"city": "ALEXANDRIA", "name": "SAVI TECHNOLOGY", "countryCode": "US", "street": "3601 EISENHOWER AVE", "stateCode": "VA", "postalCode": "22304"}}}, "timestamp": {"collected": "2016-02-09T12:08:00.000Z", "received": "2016-02-09T12:08:00.000Z", "processed": "2016-02-09T12:08:00.000Z", "asOf": "2016-02-09T12:06:00.000Z"}}
{"paired": {"carrier": "LAIR", "shipper": "TESTCO", "shipmentId": "Test104|%RUN_TS%"}, "version": "v1.0.0", "geolocation": {"latitude": 38.8014, "geolocationMethods": ["gps"], "sourceType": "device", "longitude": -77.0602}, "events": {"GeolocationUpdate": {"toAddress": {"city": "ARLINGTON", "name": "REAGAN NATIONAL AIRPORT", "countryCode": "US", "street": "2401 S SMITH BLVD", "stateCode": "VA", "postalCode": "22202"}, "sourceType": "device", "longitude": -77.0602, "latitude": 38.8014, "reasonCode": "X6NS", "fromAddress": {"city": "ALEXANDRIA", "name": "SAVI TECHNOLOGY", "countryCode": "US", "street": "3601 EISENHOWER AVE", "stateCode": "VA", "postalCode": "22304"}}}, "timestamp": {"collected": "2016-02-09T12:11:00.000Z", "received": "2016-02-09T12:11:00.000Z", "processed": "2016-02-09T12:11:00.000Z", "asOf": "2016-02-09T12:09:00.000Z"}}
{"paired": {"carrier": "LAIR", "shipper": "TESTCO", "shipmentId": "Test104|%RUN_TS%"}, "version": "v1.0.0", "geolocation": {"latitude": 38.8055, "geolocationMethods": ["gps"], "sourceType": "device", "longitude": -77.0564}, "events": {"GeolocationUpdate": {"toAddress": {"city": "ARLINGTON", "name": "REAGAN NATIONAL AIRPORT", "countryCode": "US", "street": "2401 S SMITH BLVD", "stateCode": "VA", "postalCode": "22202"}, "sourceType": "device", "longitude": -77.0564, "latitude": 38.8055, "reasonCode": "X6NS", "fromAddress": {"city": "ALEXANDRIA", "name": "SAVI TECHNOLOGY", "countryCode": "US", "street": "3601 EISENHOWER AVE", "stateCode": "VA", "postalCode": "22304"}}}, "timestamp": {"collected": "2016-02-09T12:14:00.000Z", "received": "2016-02-09T12:14:00.000Z", "processed": "2016-02-09T12:14:00.000Z", "asOf": "2016-02-09T12:12:00.000Z"}}
{"paired": {"carrier": "LAIR", "shipper": "TESTCO", "shipmentId": "Test104|%RUN_TS%"}, "version": "v1.0.0", "geolocation": {"latitude": 38.8081, "geolocationMethods": ["gps"], "sourceType": "device", "longitude": -77.0523}, "events": {"GeolocationUpdate": {"toAddress": {"city": "ARLINGTON", "name": "REAGAN NATIONAL AIRPORT", "countryCode": "US", "street": "2401 S SMITH BLVD", "stateCode": "VA", "postalCode": "22202"}, "sourceType": "device", "longitude": -77.0523, "latitude": 38.8081, "reasonCode": "X6NS", "fromAddress": {"city": "ALEXANDRIA", "name": "SAVI TECHNOLOGY", "countryCode": "US", "street": "3601 EISENHOWER AVE", "stateCode": "VA", "postalCode": "22304"}}}, "timestamp": {"collected": "2016-02-09T12:17:00.000Z", "received": "2016-02-09T12:17:00.000Z", "processed": "2016-02-09T12:17:00.000Z", "asOf": "2016-02-09T12:15:00.000Z"}}
{"paired": {"carrier": "LAIR", "shipper": "TESTCO", "shipmentId": "Test104|%RUN_TS%"}, "version": "v1.0.0", "geolocation": {"latitude": 38.8108, "geolocationMethods": ["gps"], "sourceType": "device", "longitude": -77.0491}, "events": {"GeolocationUpdate": {"toAddress": {"city": "ARLINGTON", "name": "REAGAN NATIONAL AIRPORT", "countryCode": "US", "street": "2401 S SMITH BLVD", "stateCode": "VA", "postalCode": "22202"}, "sourceType": "device", "longitude": -77.0491, "latitude": 38.8108, "reasonCode": "X6NS", "fromAddress": {"city": "ALEXANDRIA", "name": "SAVI TECHNOLOGY", "countryCode": "US", "street": "3601 EISENHOWER AVE", "stateCode": "VA", "postalCode": "22304"}}}, "timestamp": {"collected": "2016-02-09T12:20:00.000Z", "received": "2016-02-09T12:20:00.000Z", "processed": "2016-02-09T12:20:00.000Z", "asOf": "2016-02-09T12:18:00.000Z"}}
{"paired": {"carrier": "LAIR", "shipper": "TESTCO", "shipmentId": "Test104|%RUN_TS%"}, "version": "v1.0.0", "geolocation": {"latitude": 38.8137, "geolocationMethods": ["gps"], "sourceType": "device", "longitude": -77.0451}, "events": {"GeolocationUpdate": {"toAddress": {"city": "ARLINGTON", "name": "REAGAN NATIONAL AIRPORT", "countryCode": "US", "street": "2401 S SMITH BLVD", "stateCode": "VA", "postalCode": "22202"}, "sourceType": "device", "longitude": -77.0451, "latitude": 38.8137, "reasonCode": "X6NS", "fromAddress": {"city": "ALEXANDRIA", "name": "SAVI TECHNOLOGY", "countryCode": "US", "street": "3601 EISENHOWER AVE", "stateCode": "VA", "postalCode": "22304"}}}, "timestamp": {"collected": "2016-02-09T12:23:00.000Z", "received": "2016-02-09T12:23:00.000Z", "processed": "2016-02-09T12:23:00.000Z", "asOf": "2016-02-09T12:21:00.000Z"}}
{"paired": {"carrier": "LAIR", "shipper": "TESTCO", "shipmentId": "Test104|%RUN_TS%"}, "version": "v1.0.0", "geolocation": {"latitude": 38.8212, "geolocationMethods": ["gps"], "sourceType": "device", "longitude": -77.0439}, "events": {"GeolocationUpdate": {"toAddress": {"city": "ARLINGTON", "name": "REAGAN NATIONAL AIRPORT", "countryCode": "US", "street": "2401 S SMITH BLVD", "stateCode": "VA", "postalCode": "22202"}, "sourceType": "device", "longitude": -77.0439, "latitude": 38.8212, "reasonCode": "X6NS", "fromAddress": {"city": "ALEXANDRIA", "name": "SAVI TECHNOLOGY", "countryCode": "US", "street": "3601 EISENHOWER AVE", "stateCode": "VA", "postalCode": "22304"}}}, "timestamp": {"collected": "2016-02-09T12:26:00.000Z", "received": "2016-02-09T12:26:00.000Z", "processed": "2016-02-09T12:26:00.000Z", "asOf": "2016-02-09T12:24:00.000Z"}}
{"paired": {"carrier": "LAIR", "shipper": "TESTCO", "shipmentId": "Test104|%RUN_TS%"}, "version": "v1.0.0", "geolocation": {"latitude": 38.8338, "geolocationMethods": ["gps"], "sourceType": "device", "longitude": -77.0451}, "events": {"GeolocationUpdate": {"toAddress": {"city": "ARLINGTON", "name": "REAGAN NATIONAL AIRPORT", "countryCode": "US", "street": "2401 S SMITH BLVD", "stateCode": "VA", "postalCode": "22202"}, "sourceType": "device", "longitude": -77.0451, "latitude": 38.8338, "reasonCode": "X6NS", "fromAddress": {"city": "ALEXANDRIA", "name": "SAVI TECHNOLOGY", "countryCode": "US", "street": "3601 EISENHOWER AVE", "stateCode": "VA", "postalCode": "22304"}}}, "timestamp": {"collected": "2016-02-09T12:29:00.000Z", "received": "2016-02-09T12:29:00.000Z", "processed": "2016-02-09T12:29:00.000Z", "asOf": "2016-02-09T12:27:00.000Z"}}
{"paired": {"carrier": "LAIR", "shipper": "TESTCO", "shipmentId": "Test104|%RUN_TS%"}, "version": "v1.0.0", "geolocation": {"latitude": 38.8447, "geolocationMethods": ["gps"], "sourceType": "device", "longitude": -77.049}, "events": {"GeolocationUpdate": {"toAddress": {"city": "ARLINGTON", "name": "REAGAN NATIONAL AIRPORT", "countryCode": "US", "street": "2401 S SMITH BLVD", "stateCode": "VA", "postalCode": "22202"}, "sourceType": "device", "longitude": -77.049, "latitude": 38.8447, "reasonCode": "X6NS", "fromAddress": {"city": "ALEXANDRIA", "name": "SAVI TECHNOLOGY", "countryCode": "US", "street": "3601 EISENHOWER AVE", "stateCode": "VA", "postalCode": "22304"}}}, "timestamp": {"collected": "2016-02-09T12:32:00.000Z", "received": "2016-02-09T12:32:00.000Z", "processed": "2016-02-09T12:32:00.000Z", "asOf": "2016-02-09T12:30:00.000Z"}}
{"paired": {"carrier": "LAIR", "shipper": "TESTCO", "shipmentId": "Test104|%RUN_TS%"}, "version": "v1.0.0", "geolocation": {"latitude": 38.8525, "geolocationMethods": ["gps"], "sourceType": "device", "longitude": -77.0472}, "events": {"GeolocationUpdate": {"toAddress": {"city": "ARLINGTON", "name": "REAGAN NATIONAL AIRPORT", "countryCode": "US", "street": "2401 S SMITH BLVD", "stateCode": "VA", "postalCode": "22202"}, "sourceType": "device", "longitude": -77.0472, "latitude": 38.8525, "reasonCode": "X6NS", "fromAddress": {"city": "ALEXANDRIA", "name": "SAVI TECHNOLOGY", "countryCode": "US", "street": "3601 EISENHOWER AVE", "stateCode": "VA", "postalCode": "22304"}}}, "timestamp": {"collected": "2016-02-09T12:35:00.000Z", "received": "2016-02-09T12:35:00.000Z", "processed": "2016-02-09T12:35:00.000Z", "asOf": "2016-02-09T12:33:00.000Z"}}
{"paired": {"carrier": "LAIR", "shipper": "TESTCO", "shipmentId": "Test104|%RUN_TS%"}, "version": "v1.0.0", "geolocation": {"latitude": 38.8502, "geolocationMethods": ["gps"], "sourceType": "device", "longitude": -77.0463}, "events": {"GeolocationUpdate": {"toAddress": {"city": "ARLINGTON", "name": "REAGAN NATIONAL AIRPORT", "countryCode": "US", "street": "2401 S SMITH BLVD", "stateCode": "VA", "postalCode": "22202"}, "sourceType": "device", "longitude": -77.0463, "latitude": 38.8502, "reasonCode": "X6NS", "fromAddress": {"city": "ALEXANDRIA", "name": "SAVI TECHNOLOGY", "countryCode": "US", "street": "3601 EISENHOWER AVE", "stateCode": "VA", "postalCode": "22304"}}}, "timestamp": {"collected": "2016-02-09T12:38:00.000Z", "received": "2016-02-09T12:38:00.000Z", "processed": "2016-02-09T12:38:00.000Z", "asOf": "2016-02-09T12:36:00.000Z"}}
{"paired": {"carrier": "LAIR", "shipper": "TESTCO", "shipmentId": "Test104|%RUN_TS%"}, "version": "v1.0.0", "geolocation": {"latitude": 38.8494, "geolocationMethods": ["gps"], "sourceType": "device", "longitude": -77.0418}, "events": {"GeolocationUpdate": {"toAddress": {"city": "ARLINGTON", "name": "REAGAN NATIONAL AIRPORT", "countryCode": "US", "street": "2401 S SMITH BLVD", "stateCode": "VA", "postalCode": "22202"}, "sourceType": "device", "longitude": -77.0418, "latitude": 38.8494, "reasonCode": "X6NS", "fromAddress": {"city": "ALEXANDRIA", "name": "SAVI TECHNOLOGY", "countryCode": "US", "street": "3601 EISENHOWER AVE", "stateCode": "VA", "postalCode": "22304"}}}, "timestamp": {"collected": "2016-02-09T12:41:00.000Z", "received": "2016-02-09T12:41:00.000Z", "processed": "2016-02-09T12:41:00.000Z", "asOf": "2016-02-09T12:39:00.000Z"}}
